[{"latitude": -22.9512827, "disabled_spaces": 3, "spaces": 35, "name": "Rua da Passagem", "longitude": -43.1817177},{"latitude": -22.904169, "disabled_spaces": 7, "spaces": 90, "name": "Condom\u00ednio do Edif\u00edcio Portobelo - Rua Cinco de Julho", "longitude": -43.103811},{"latitude": -22.995788, "disabled_spaces": 7, "spaces": 95, "name": "Rua Armando Almeida Lima", "longitude": -43.24213299999999},{"latitude": -22.9145809, "disabled_spaces": 7, "spaces": 90, "name": "Rua General Canabarro", "longitude": -43.2259902},{"latitude": -22.95071609999999, "disabled_spaces": 6, "spaces": 72, "name": "Rua Volunt\u00e1rios da P\u00e1tria", "longitude": -43.1817946},{"latitude": -22.9045829, "disabled_spaces": 4, "spaces": 52, "name": "Avenida Pedro II", "longitude": -43.2186716},{"latitude": -22.9144635, "disabled_spaces": 2, "spaces": 23, "name": "Rua Silvio Romero", "longitude": -43.18197939999999},{"latitude": -22.9212295, "disabled_spaces": 7, "spaces": 87, "name": "Rua Almirante Alexandrino", "longitude": -43.1847809},{"latitude": -22.9329111, "disabled_spaces": 2, "spaces": 20, "name": "Rua Conde de Bonfim", "longitude": -43.2415854},{"latitude": -22.9247857, "disabled_spaces": 2, "spaces": 16, "name": "Rua Uberaba", "longitude": -43.2570295},{"latitude": -22.9181645, "disabled_spaces": 7, "spaces": 86, "name": "Rua dos Artistas", "longitude": -43.2381503},{"latitude": -22.9677571, "disabled_spaces": 5, "spaces": 59, "name": "Rua Barata Ribeiro", "longitude": -43.1846389},{"latitude": -22.9551579, "disabled_spaces": 6, "spaces": 78, "name": "Rua Volunt\u00e1rios da P\u00e1tria", "longitude": -43.1969332},{"latitude": -22.9197758, "disabled_spaces": 6, "spaces": 77, "name": "Rua C\u00e2ndido Mendes", "longitude": -43.1789741},{"latitude": -22.8968721, "disabled_spaces": 2, "spaces": 18, "name": "Rua Justino de Sousa", "longitude": -43.22968270000001},{"latitude": -22.9167864, "disabled_spaces": 1, "spaces": 4, "name": "Rua Taylor", "longitude": -43.1789035},{"latitude": -22.960426, "disabled_spaces": 4, "spaces": 53, "name": "Rua Doutor Jo\u00e3o Guerra - Leme", "longitude": -43.16898099999999},{"latitude": -22.8854896, "disabled_spaces": 3, "spaces": 42, "name": "Mercado S\u00e3o Pedro - Box - 209", "longitude": -43.12517539999999},{"latitude": -22.922018, "disabled_spaces": 6, "spaces": 84, "name": "Rua Almirante Alexandrino", "longitude": -43.1877732},{"latitude": -22.9324504, "disabled_spaces": 5, "spaces": 65, "name": "Tijuca", "longitude": -43.2413699},{"latitude": -22.9512827, "disabled_spaces": 5, "spaces": 68, "name": "Rua da Passagem", "longitude": -43.1817177},{"latitude": -22.904169, "disabled_spaces": 6, "spaces": 76, "name": "Condom\u00ednio do Edif\u00edcio Portobelo - Rua Cinco de Julho", "longitude": -43.103811},{"latitude": -22.995788, "disabled_spaces": 6, "spaces": 85, "name": "Rua Armando Almeida Lima", "longitude": -43.24213299999999},{"latitude": -22.9145809, "disabled_spaces": 6, "spaces": 77, "name": "Rua General Canabarro", "longitude": -43.2259902},{"latitude": -22.95071609999999, "disabled_spaces": 7, "spaces": 98, "name": "Rua Volunt\u00e1rios da P\u00e1tria", "longitude": -43.1817946},{"latitude": -22.9045829, "disabled_spaces": 2, "spaces": 25, "name": "Avenida Pedro II", "longitude": -43.2186716},{"latitude": -22.9144635, "disabled_spaces": 4, "spaces": 52, "name": "Rua Silvio Romero", "longitude": -43.18197939999999},{"latitude": -22.9212295, "disabled_spaces": 2, "spaces": 28, "name": "Rua Almirante Alexandrino", "longitude": -43.1847809},{"latitude": -22.9329111, "disabled_spaces": 2, "spaces": 27, "name": "Rua Conde de Bonfim", "longitude": -43.2415854},{"latitude": -22.9247857, "disabled_spaces": 5, "spaces": 68, "name": "Rua Uberaba", "longitude": -43.2570295},{"latitude": -22.9181645, "disabled_spaces": 7, "spaces": 87, "name": "Rua dos Artistas", "longitude": -43.2381503},{"latitude": -22.9677571, "disabled_spaces": 5, "spaces": 71, "name": "Rua Barata Ribeiro", "longitude": -43.1846389},{"latitude": -22.9551579, "disabled_spaces": 3, "spaces": 40, "name": "Rua Volunt\u00e1rios da P\u00e1tria", "longitude": -43.1969332},{"latitude": -22.9197758, "disabled_spaces": 5, "spaces": 70, "name": "Rua C\u00e2ndido Mendes", "longitude": -43.1789741},{"latitude": -22.8968721, "disabled_spaces": 4, "spaces": 49, "name": "Rua Justino de Sousa", "longitude": -43.22968270000001},{"latitude": -22.9167864, "disabled_spaces": 2, "spaces": 15, "name": "Rua Taylor", "longitude": -43.1789035},{"latitude": -22.960426, "disabled_spaces": 6, "spaces": 85, "name": "Rua Doutor Jo\u00e3o Guerra - Leme", "longitude": -43.16898099999999},{"latitude": -22.8854896, "disabled_spaces": 1, "spaces": 6, "name": "Mercado S\u00e3o Pedro - Box - 209", "longitude": -43.12517539999999},{"latitude": -22.922018, "disabled_spaces": 6, "spaces": 82, "name": "Rua Almirante Alexandrino", "longitude": -43.1877732},{"latitude": -22.9324504, "disabled_spaces": 5, "spaces": 64, "name": "Tijuca", "longitude": -43.2413699},{"latitude": -22.9512827, "disabled_spaces": 1, "spaces": 4, "name": "Rua da Passagem", "longitude": -43.1817177},{"latitude": -22.904169, "disabled_spaces": 5, "spaces": 64, "name": "Condom\u00ednio do Edif\u00edcio Portobelo - Rua Cinco de Julho", "longitude": -43.103811},{"latitude": -22.995788, "disabled_spaces": 6, "spaces": 74, "name": "Rua Armando Almeida Lima", "longitude": -43.24213299999999},{"latitude": -22.9145809, "disabled_spaces": 1, "spaces": 7, "name": "Rua General Canabarro", "longitude": -43.2259902},{"latitude": -22.95071609999999, "disabled_spaces": 5, "spaces": 70, "name": "Rua Volunt\u00e1rios da P\u00e1tria", "longitude": -43.1817946},{"latitude": -22.9045829, "disabled_spaces": 4, "spaces": 44, "name": "Avenida Pedro II", "longitude": -43.2186716},{"latitude": -22.9144635, "disabled_spaces": 6, "spaces": 73, "name": "Rua Silvio Romero", "longitude": -43.18197939999999},{"latitude": -22.9212295, "disabled_spaces": 7, "spaces": 88, "name": "Rua Almirante Alexandrino", "longitude": -43.1847809},{"latitude": -22.9329111, "disabled_spaces": 6, "spaces": 84, "name": "Rua Conde de Bonfim", "longitude": -43.2415854},{"latitude": -22.9247857, "disabled_spaces": 7, "spaces": 93, "name": "Rua Uberaba", "longitude": -43.2570295},{"latitude": -22.9181645, "disabled_spaces": 6, "spaces": 72, "name": "Rua dos Artistas", "longitude": -43.2381503},{"latitude": -22.9677571, "disabled_spaces": 7, "spaces": 95, "name": "Rua Barata Ribeiro", "longitude": -43.1846389},{"latitude": -22.9551579, "disabled_spaces": 1, "spaces": 1, "name": "Rua Volunt\u00e1rios da P\u00e1tria", "longitude": -43.1969332},{"latitude": -22.9197758, "disabled_spaces": 3, "spaces": 37, "name": "Rua C\u00e2ndido Mendes", "longitude": -43.1789741},{"latitude": -22.8968721, "disabled_spaces": 4, "spaces": 44, "name": "Rua Justino de Sousa", "longitude": -43.22968270000001},{"latitude": -22.9167864, "disabled_spaces": 3, "spaces": 41, "name": "Rua Taylor", "longitude": -43.1789035},{"latitude": -22.960426, "disabled_spaces": 1, "spaces": 14, "name": "Rua Doutor Jo\u00e3o Guerra - Leme", "longitude": -43.16898099999999},{"latitude": -22.8854896, "disabled_spaces": 4, "spaces": 46, "name": "Mercado S\u00e3o Pedro - Box - 209", "longitude": -43.12517539999999},{"latitude": -22.922018, "disabled_spaces": 4, "spaces": 43, "name": "Rua Almirante Alexandrino", "longitude": -43.1877732},{"latitude": -22.9324504, "disabled_spaces": 1, "spaces": 3, "name": "Tijuca", "longitude": -43.2413699},{"latitude": -22.9512827, "disabled_spaces": 5, "spaces": 68, "name": "Rua da Passagem", "longitude": -43.1817177},{"latitude": -22.904169, "disabled_spaces": 1, "spaces": 12, "name": "Condom\u00ednio do Edif\u00edcio Portobelo - Rua Cinco de Julho", "longitude": -43.103811},{"latitude": -22.995788, "disabled_spaces": 5, "spaces": 62, "name": "Rua Armando Almeida Lima", "longitude": -43.24213299999999},{"latitude": -22.9145809, "disabled_spaces": 2, "spaces": 25, "name": "Rua General Canabarro", "longitude": -43.2259902},{"latitude": -22.95071609999999, "disabled_spaces": 5, "spaces": 58, "name": "Rua Volunt\u00e1rios da P\u00e1tria", "longitude": -43.1817946},{"latitude": -22.9045829, "disabled_spaces": 1, "spaces": 14, "name": "Avenida Pedro II", "longitude": -43.2186716},{"latitude": -22.9144635, "disabled_spaces": 1, "spaces": 2, "name": "Rua Silvio Romero", "longitude": -43.18197939999999},{"latitude": -22.9212295, "disabled_spaces": 4, "spaces": 49, "name": "Rua Almirante Alexandrino", "longitude": -43.1847809},{"latitude": -22.9329111, "disabled_spaces": 1, "spaces": 5, "name": "Rua Conde de Bonfim", "longitude": -43.2415854},{"latitude": -22.9247857, "disabled_spaces": 4, "spaces": 54, "name": "Rua Uberaba", "longitude": -43.2570295},{"latitude": -22.9181645, "disabled_spaces": 7, "spaces": 99, "name": "Rua dos Artistas", "longitude": -43.2381503},{"latitude": -22.9677571, "disabled_spaces": 7, "spaces": 97, "name": "Rua Barata Ribeiro", "longitude": -43.1846389},{"latitude": -22.9551579, "disabled_spaces": 2, "spaces": 21, "name": "Rua Volunt\u00e1rios da P\u00e1tria", "longitude": -43.1969332},{"latitude": -22.9197758, "disabled_spaces": 3, "spaces": 38, "name": "Rua C\u00e2ndido Mendes", "longitude": -43.1789741},{"latitude": -22.8968721, "disabled_spaces": 7, "spaces": 86, "name": "Rua Justino de Sousa", "longitude": -43.22968270000001},{"latitude": -22.9167864, "disabled_spaces": 5, "spaces": 61, "name": "Rua Taylor", "longitude": -43.1789035},{"latitude": -22.960426, "disabled_spaces": 5, "spaces": 60, "name": "Rua Doutor Jo\u00e3o Guerra - Leme", "longitude": -43.16898099999999},{"latitude": -22.8854896, "disabled_spaces": 6, "spaces": 75, "name": "Mercado S\u00e3o Pedro - Box - 209", "longitude": -43.12517539999999},{"latitude": -22.922018, "disabled_spaces": 1, "spaces": 1, "name": "Rua Almirante Alexandrino", "longitude": -43.1877732},{"latitude": -22.9324504, "disabled_spaces": 3, "spaces": 38, "name": "Tijuca", "longitude": -43.2413699},{"latitude": -22.9512827, "disabled_spaces": 1, "spaces": 2, "name": "Rua da Passagem", "longitude": -43.1817177},{"latitude": -22.904169, "disabled_spaces": 2, "spaces": 16, "name": "Condom\u00ednio do Edif\u00edcio Portobelo - Rua Cinco de Julho", "longitude": -43.103811},{"latitude": -22.995788, "disabled_spaces": 1, "spaces": 9, "name": "Rua Armando Almeida Lima", "longitude": -43.24213299999999},{"latitude": -22.9145809, "disabled_spaces": 1, "spaces": 11, "name": "Rua General Canabarro", "longitude": -43.2259902},{"latitude": -22.95071609999999, "disabled_spaces": 4, "spaces": 53, "name": "Rua Volunt\u00e1rios da P\u00e1tria", "longitude": -43.1817946},{"latitude": -22.9045829, "disabled_spaces": 3, "spaces": 32, "name": "Avenida Pedro II", "longitude": -43.2186716},{"latitude": -22.9144635, "disabled_spaces": 3, "spaces": 34, "name": "Rua Silvio Romero", "longitude": -43.18197939999999},{"latitude": -22.9212295, "disabled_spaces": 5, "spaces": 71, "name": "Rua Almirante Alexandrino", "longitude": -43.1847809},{"latitude": -22.9329111, "disabled_spaces": 4, "spaces": 44, "name": "Rua Conde de Bonfim", "longitude": -43.2415854},{"latitude": -22.9247857, "disabled_spaces": 2, "spaces": 28, "name": "Rua Uberaba", "longitude": -43.2570295},{"latitude": -22.9181645, "disabled_spaces": 3, "spaces": 37, "name": "Rua dos Artistas", "longitude": -43.2381503},{"latitude": -22.9677571, "disabled_spaces": 1, "spaces": 8, "name": "Rua Barata Ribeiro", "longitude": -43.1846389},{"latitude": -22.9551579, "disabled_spaces": 3, "spaces": 37, "name": "Rua Volunt\u00e1rios da P\u00e1tria", "longitude": -43.1969332},{"latitude": -22.9197758, "disabled_spaces": 2, "spaces": 23, "name": "Rua C\u00e2ndido Mendes", "longitude": -43.1789741},{"latitude": -22.8968721, "disabled_spaces": 1, "spaces": 13, "name": "Rua Justino de Sousa", "longitude": -43.22968270000001},{"latitude": -22.9167864, "disabled_spaces": 6, "spaces": 83, "name": "Rua Taylor", "longitude": -43.1789035},{"latitude": -22.960426, "disabled_spaces": 6, "spaces": 85, "name": "Rua Doutor Jo\u00e3o Guerra - Leme", "longitude": -43.16898099999999},{"latitude": -22.8854896, "disabled_spaces": 5, "spaces": 58, "name": "Mercado S\u00e3o Pedro - Box - 209", "longitude": -43.12517539999999},{"latitude": -22.922018, "disabled_spaces": 7, "spaces": 98, "name": "Rua Almirante Alexandrino", "longitude": -43.1877732},{"latitude": -22.9324504, "disabled_spaces": 4, "spaces": 55, "name": "Tijuca", "longitude": -43.2413699},{"latitude": -22.9512827, "disabled_spaces": 6, "spaces": 79, "name": "Rua da Passagem", "longitude": -43.1817177},{"latitude": -22.904169, "disabled_spaces": 1, "spaces": 4, "name": "Condom\u00ednio do Edif\u00edcio Portobelo - Rua Cinco de Julho", "longitude": -43.103811},{"latitude": -22.995788, "disabled_spaces": 3, "spaces": 30, "name": "Rua Armando Almeida Lima", "longitude": -43.24213299999999},{"latitude": -22.9145809, "disabled_spaces": 4, "spaces": 57, "name": "Rua General Canabarro", "longitude": -43.2259902},{"latitude": -22.95071609999999, "disabled_spaces": 3, "spaces": 38, "name": "Rua Volunt\u00e1rios da P\u00e1tria", "longitude": -43.1817946},{"latitude": -22.9045829, "disabled_spaces": 4, "spaces": 54, "name": "Avenida Pedro II", "longitude": -43.2186716},{"latitude": -22.9144635, "disabled_spaces": 1, "spaces": 8, "name": "Rua Silvio Romero", "longitude": -43.18197939999999},{"latitude": -22.9212295, "disabled_spaces": 4, "spaces": 52, "name": "Rua Almirante Alexandrino", "longitude": -43.1847809},{"latitude": -22.9329111, "disabled_spaces": 8, "spaces": 100, "name": "Rua Conde de Bonfim", "longitude": -43.2415854},{"latitude": -22.9247857, "disabled_spaces": 2, "spaces": 26, "name": "Rua Uberaba", "longitude": -43.2570295},{"latitude": -22.9181645, "disabled_spaces": 7, "spaces": 94, "name": "Rua dos Artistas", "longitude": -43.2381503},{"latitude": -22.9677571, "disabled_spaces": 3, "spaces": 42, "name": "Rua Barata Ribeiro", "longitude": -43.1846389},{"latitude": -22.9551579, "disabled_spaces": 3, "spaces": 35, "name": "Rua Volunt\u00e1rios da P\u00e1tria", "longitude": -43.1969332},{"latitude": -22.9197758, "disabled_spaces": 2, "spaces": 23, "name": "Rua C\u00e2ndido Mendes", "longitude": -43.1789741},{"latitude": -22.8968721, "disabled_spaces": 1, "spaces": 2, "name": "Rua Justino de Sousa", "longitude": -43.22968270000001},{"latitude": -22.9167864, "disabled_spaces": 4, "spaces": 47, "name": "Rua Taylor", "longitude": -43.1789035},{"latitude": -22.960426, "disabled_spaces": 2, "spaces": 19, "name": "Rua Doutor Jo\u00e3o Guerra - Leme", "longitude": -43.16898099999999},{"latitude": -22.8854896, "disabled_spaces": 4, "spaces": 48, "name": "Mercado S\u00e3o Pedro - Box - 209", "longitude": -43.12517539999999},{"latitude": -22.922018, "disabled_spaces": 7, "spaces": 97, "name": "Rua Almirante Alexandrino", "longitude": -43.1877732},{"latitude": -22.9324504, "disabled_spaces": 6, "spaces": 72, "name": "Tijuca", "longitude": -43.2413699},{"latitude": -22.9512827, "disabled_spaces": 8, "spaces": 100, "name": "Rua da Passagem", "longitude": -43.1817177},{"latitude": -22.904169, "disabled_spaces": 4, "spaces": 43, "name": "Condom\u00ednio do Edif\u00edcio Portobelo - Rua Cinco de Julho", "longitude": -43.103811},{"latitude": -22.995788, "disabled_spaces": 6, "spaces": 74, "name": "Rua Armando Almeida Lima", "longitude": -43.24213299999999},{"latitude": -22.9145809, "disabled_spaces": 3, "spaces": 33, "name": "Rua General Canabarro", "longitude": -43.2259902},{"latitude": -22.95071609999999, "disabled_spaces": 5, "spaces": 60, "name": "Rua Volunt\u00e1rios da P\u00e1tria", "longitude": -43.1817946},{"latitude": -22.9045829, "disabled_spaces": 5, "spaces": 67, "name": "Avenida Pedro II", "longitude": -43.2186716},{"latitude": -22.9144635, "disabled_spaces": 5, "spaces": 60, "name": "Rua Silvio Romero", "longitude": -43.18197939999999},{"latitude": -22.9212295, "disabled_spaces": 1, "spaces": 6, "name": "Rua Almirante Alexandrino", "longitude": -43.1847809},{"latitude": -22.9329111, "disabled_spaces": 3, "spaces": 38, "name": "Rua Conde de Bonfim", "longitude": -43.2415854},{"latitude": -22.9247857, "disabled_spaces": 2, "spaces": 28, "name": "Rua Uberaba", "longitude": -43.2570295},{"latitude": -22.9181645, "disabled_spaces": 7, "spaces": 96, "name": "Rua dos Artistas", "longitude": -43.2381503},{"latitude": -22.9677571, "disabled_spaces": 5, "spaces": 71, "name": "Rua Barata Ribeiro", "longitude": -43.1846389},{"latitude": -22.9551579, "disabled_spaces": 7, "spaces": 99, "name": "Rua Volunt\u00e1rios da P\u00e1tria", "longitude": -43.1969332},{"latitude": -22.9197758, "disabled_spaces": 5, "spaces": 62, "name": "Rua C\u00e2ndido Mendes", "longitude": -43.1789741},{"latitude": -22.8968721, "disabled_spaces": 1, "spaces": 5, "name": "Rua Justino de Sousa", "longitude": -43.22968270000001},{"latitude": -22.9167864, "disabled_spaces": 7, "spaces": 99, "name": "Rua Taylor", "longitude": -43.1789035},{"latitude": -22.960426, "disabled_spaces": 4, "spaces": 43, "name": "Rua Doutor Jo\u00e3o Guerra - Leme", "longitude": -43.16898099999999},{"latitude": -22.8854896, "disabled_spaces": 7, "spaces": 91, "name": "Mercado S\u00e3o Pedro - Box - 209", "longitude": -43.12517539999999},{"latitude": -22.922018, "disabled_spaces": 5, "spaces": 68, "name": "Rua Almirante Alexandrino", "longitude": -43.1877732},{"latitude": -22.9324504, "disabled_spaces": 1, "spaces": 10, "name": "Tijuca", "longitude": -43.2413699},{"latitude": -22.9512827, "disabled_spaces": 7, "spaces": 92, "name": "Rua da Passagem", "longitude": -43.1817177},{"latitude": -22.904169, "disabled_spaces": 4, "spaces": 54, "name": "Condom\u00ednio do Edif\u00edcio Portobelo - Rua Cinco de Julho", "longitude": -43.103811},{"latitude": -22.995788, "disabled_spaces": 3, "spaces": 30, "name": "Rua Armando Almeida Lima", "longitude": -43.24213299999999},{"latitude": -22.9145809, "disabled_spaces": 3, "spaces": 31, "name": "Rua General Canabarro", "longitude": -43.2259902},{"latitude": -22.95071609999999, "disabled_spaces": 5, "spaces": 69, "name": "Rua Volunt\u00e1rios da P\u00e1tria", "longitude": -43.1817946},{"latitude": -22.9045829, "disabled_spaces": 7, "spaces": 99, "name": "Avenida Pedro II", "longitude": -43.2186716},{"latitude": -22.9144635, "disabled_spaces": 3, "spaces": 31, "name": "Rua Silvio Romero", "longitude": -43.18197939999999},{"latitude": -22.9212295, "disabled_spaces": 7, "spaces": 89, "name": "Rua Almirante Alexandrino", "longitude": -43.1847809},{"latitude": -22.9329111, "disabled_spaces": 3, "spaces": 32, "name": "Rua Conde de Bonfim", "longitude": -43.2415854},{"latitude": -22.9247857, "disabled_spaces": 2, "spaces": 15, "name": "Rua Uberaba", "longitude": -43.2570295},{"latitude": -22.9181645, "disabled_spaces": 3, "spaces": 29, "name": "Rua dos Artistas", "longitude": -43.2381503},{"latitude": -22.9677571, "disabled_spaces": 6, "spaces": 84, "name": "Rua Barata Ribeiro", "longitude": -43.1846389},{"latitude": -22.9551579, "disabled_spaces": 3, "spaces": 31, "name": "Rua Volunt\u00e1rios da P\u00e1tria", "longitude": -43.1969332},{"latitude": -22.9197758, "disabled_spaces": 3, "spaces": 37, "name": "Rua C\u00e2ndido Mendes", "longitude": -43.1789741},{"latitude": -22.8968721, "disabled_spaces": 7, "spaces": 93, "name": "Rua Justino de Sousa", "longitude": -43.22968270000001},{"latitude": -22.9167864, "disabled_spaces": 4, "spaces": 46, "name": "Rua Taylor", "longitude": -43.1789035},{"latitude": -22.960426, "disabled_spaces": 2, "spaces": 21, "name": "Rua Doutor Jo\u00e3o Guerra - Leme", "longitude": -43.16898099999999},{"latitude": -22.8854896, "disabled_spaces": 2, "spaces": 22, "name": "Mercado S\u00e3o Pedro - Box - 209", "longitude": -43.12517539999999},{"latitude": -22.922018, "disabled_spaces": 3, "spaces": 41, "name": "Rua Almirante Alexandrino", "longitude": -43.1877732},{"latitude": -22.9324504, "disabled_spaces": 3, "spaces": 32, "name": "Tijuca", "longitude": -43.2413699},{"latitude": -22.9512827, "disabled_spaces": 2, "spaces": 28, "name": "Rua da Passagem", "longitude": -43.1817177},{"latitude": -22.904169, "disabled_spaces": 6, "spaces": 77, "name": "Condom\u00ednio do Edif\u00edcio Portobelo - Rua Cinco de Julho", "longitude": -43.103811},{"latitude": -22.995788, "disabled_spaces": 2, "spaces": 24, "name": "Rua Armando Almeida Lima", "longitude": -43.24213299999999},{"latitude": -22.9145809, "disabled_spaces": 7, "spaces": 97, "name": "Rua General Canabarro", "longitude": -43.2259902},{"latitude": -22.95071609999999, "disabled_spaces": 3, "spaces": 39, "name": "Rua Volunt\u00e1rios da P\u00e1tria", "longitude": -43.1817946},{"latitude": -22.9045829, "disabled_spaces": 7, "spaces": 98, "name": "Avenida Pedro II", "longitude": -43.2186716},{"latitude": -22.9144635, "disabled_spaces": 1, "spaces": 2, "name": "Rua Silvio Romero", "longitude": -43.18197939999999},{"latitude": -22.9212295, "disabled_spaces": 2, "spaces": 28, "name": "Rua Almirante Alexandrino", "longitude": -43.1847809},{"latitude": -22.9329111, "disabled_spaces": 7, "spaces": 99, "name": "Rua Conde de Bonfim", "longitude": -43.2415854},{"latitude": -22.9247857, "disabled_spaces": 4, "spaces": 45, "name": "Rua Uberaba", "longitude": -43.2570295},{"latitude": -22.9181645, "disabled_spaces": 5, "spaces": 71, "name": "Rua dos Artistas", "longitude": -43.2381503},{"latitude": -22.9677571, "disabled_spaces": 5, "spaces": 67, "name": "Rua Barata Ribeiro", "longitude": -43.1846389},{"latitude": -22.9551579, "disabled_spaces": 2, "spaces": 18, "name": "Rua Volunt\u00e1rios da P\u00e1tria", "longitude": -43.1969332},{"latitude": -22.9197758, "disabled_spaces": 2, "spaces": 23, "name": "Rua C\u00e2ndido Mendes", "longitude": -43.1789741},{"latitude": -22.8968721, "disabled_spaces": 5, "spaces": 68, "name": "Rua Justino de Sousa", "longitude": -43.22968270000001},{"latitude": -22.9167864, "disabled_spaces": 3, "spaces": 31, "name": "Rua Taylor", "longitude": -43.1789035},{"latitude": -22.960426, "disabled_spaces": 7, "spaces": 93, "name": "Rua Doutor Jo\u00e3o Guerra - Leme", "longitude": -43.16898099999999},{"latitude": -22.8854896, "disabled_spaces": 6, "spaces": 72, "name": "Mercado S\u00e3o Pedro - Box - 209", "longitude": -43.12517539999999},{"latitude": -22.922018, "disabled_spaces": 4, "spaces": 53, "name": "Rua Almirante Alexandrino", "longitude": -43.1877732},{"latitude": -22.9324504, "disabled_spaces": 2, "spaces": 22, "name": "Tijuca", "longitude": -43.2413699},{"latitude": -22.9512827, "disabled_spaces": 1, "spaces": 7, "name": "Rua da Passagem", "longitude": -43.1817177},{"latitude": -22.904169, "disabled_spaces": 1, "spaces": 2, "name": "Condom\u00ednio do Edif\u00edcio Portobelo - Rua Cinco de Julho", "longitude": -43.103811},{"latitude": -22.995788, "disabled_spaces": 4, "spaces": 45, "name": "Rua Armando Almeida Lima", "longitude": -43.24213299999999},{"latitude": -22.9145809, "disabled_spaces": 7, "spaces": 88, "name": "Rua General Canabarro", "longitude": -43.2259902},{"latitude": -22.95071609999999, "disabled_spaces": 1, "spaces": 10, "name": "Rua Volunt\u00e1rios da P\u00e1tria", "longitude": -43.1817946},{"latitude": -22.9045829, "disabled_spaces": 2, "spaces": 28, "name": "Avenida Pedro II", "longitude": -43.2186716},{"latitude": -22.9144635, "disabled_spaces": 4, "spaces": 43, "name": "Rua Silvio Romero", "longitude": -43.18197939999999},{"latitude": -22.9212295, "disabled_spaces": 5, "spaces": 68, "name": "Rua Almirante Alexandrino", "longitude": -43.1847809},{"latitude": -22.9329111, "disabled_spaces": 2, "spaces": 18, "name": "Rua Conde de Bonfim", "longitude": -43.2415854},{"latitude": -22.9247857, "disabled_spaces": 5, "spaces": 61, "name": "Rua Uberaba", "longitude": -43.2570295},{"latitude": -22.9181645, "disabled_spaces": 4, "spaces": 53, "name": "Rua dos Artistas", "longitude": -43.2381503},{"latitude": -22.9677571, "disabled_spaces": 3, "spaces": 30, "name": "Rua Barata Ribeiro", "longitude": -43.1846389},{"latitude": -22.9551579, "disabled_spaces": 6, "spaces": 72, "name": "Rua Volunt\u00e1rios da P\u00e1tria", "longitude": -43.1969332},{"latitude": -22.9197758, "disabled_spaces": 6, "spaces": 73, "name": "Rua C\u00e2ndido Mendes", "longitude": -43.1789741},{"latitude": -22.8968721, "disabled_spaces": 4, "spaces": 57, "name": "Rua Justino de Sousa", "longitude": -43.22968270000001},{"latitude": -22.9167864, "disabled_spaces": 3, "spaces": 30, "name": "Rua Taylor", "longitude": -43.1789035},{"latitude": -22.960426, "disabled_spaces": 4, "spaces": 50, "name": "Rua Doutor Jo\u00e3o Guerra - Leme", "longitude": -43.16898099999999},{"latitude": -22.8854896, "disabled_spaces": 2, "spaces": 21, "name": "Mercado S\u00e3o Pedro - Box - 209", "longitude": -43.12517539999999},{"latitude": -22.922018, "disabled_spaces": 1, "spaces": 9, "name": "Rua Almirante Alexandrino", "longitude": -43.1877732},{"latitude": -22.9324504, "disabled_spaces": 4, "spaces": 50, "name": "Tijuca", "longitude": -43.2413699}]
