[{"latitude": -22.953727, "disabled_spaces": 5, "spaces": 71, "name": "conjunto Nova Cruzada - Quarta 1 Casa 12 Fundos Bar - Cidade de Deus", "longitude": -43.364843},{"latitude": -22.9819983, "disabled_spaces": 6, "spaces": 78, "name": "Rua Dias Ferreira", "longitude": -43.2246599},{"latitude": -22.9233875, "disabled_spaces": 7, "spaces": 95, "name": "Rua Bar\u00e3o do Bom Retiro", "longitude": -43.2583934},{"latitude": -22.9045829, "disabled_spaces": 5, "spaces": 60, "name": "Avenida Pedro II", "longitude": -43.2186716},{"latitude": -22.9145809, "disabled_spaces": 5, "spaces": 70, "name": "Rua General Canabarro", "longitude": -43.2259902},{"latitude": -22.9226189, "disabled_spaces": 4, "spaces": 48, "name": "Avenida Nelson Cardoso", "longitude": -43.373546},{"latitude": -22.843378, "disabled_spaces": 4, "spaces": 43, "name": "Rua S\u00e3o Jo\u00e3o Gualberto", "longitude": -43.3071927},{"latitude": -22.8512553, "disabled_spaces": 2, "spaces": 16, "name": "Rua Esperan\u00e7a", "longitude": -43.2467808},{"latitude": -22.8993357, "disabled_spaces": 1, "spaces": 11, "name": "Rua S\u00e3o Luiz Gonzaga", "longitude": -43.2273456},{"latitude": -22.9329111, "disabled_spaces": 6, "spaces": 73, "name": "Rua Conde de Bonfim", "longitude": -43.2415854},{"latitude": -22.982752, "disabled_spaces": 1, "spaces": 6, "name": "Rua Garcia d'Avila", "longitude": -43.209273},{"latitude": -22.9181645, "disabled_spaces": 4, "spaces": 55, "name": "Rua dos Artistas", "longitude": -43.2381503},{"latitude": -22.9219724, "disabled_spaces": 2, "spaces": 22, "name": "Rua Mearim", "longitude": -43.2623219},{"latitude": -22.8968721, "disabled_spaces": 2, "spaces": 15, "name": "Rua Justino de Sousa", "longitude": -43.22968270000001},{"latitude": -22.9009477, "disabled_spaces": 3, "spaces": 38, "name": "Rua Ana Neri", "longitude": -43.2479097},{"latitude": -22.8853695, "disabled_spaces": 5, "spaces": 62, "name": "Rua Conde de Azambuja", "longitude": -43.2653544},{"latitude": -22.8989705, "disabled_spaces": 4, "spaces": 49, "name": "Rua T\u00f4rres Sobrinho", "longitude": -43.2736435},{"latitude": -22.9352547, "disabled_spaces": 4, "spaces": 45, "name": "Rua Professor Henrique Costa", "longitude": -43.3635991},{"latitude": -22.9193854, "disabled_spaces": 3, "spaces": 40, "name": "R. Teodoro da Silva", "longitude": -43.2558868},{"latitude": -22.8991152, "disabled_spaces": 6, "spaces": 77, "name": "Rua Miguel Fernandes", "longitude": -43.2733717},{"latitude": -22.8854557, "disabled_spaces": 1, "spaces": 1, "name": "Rua Conde de Azambuja", "longitude": -43.2652081},{"latitude": -22.8934313, "disabled_spaces": 4, "spaces": 45, "name": "Rua Salvador P\u00edres", "longitude": -43.27883569999999},{"latitude": -22.9411123, "disabled_spaces": 7, "spaces": 86, "name": "B", "longitude": -43.25202789999999},{"latitude": -22.8934712, "disabled_spaces": 6, "spaces": 81, "name": "Rua Clarimundo de Melo", "longitude": -43.32183149999999},{"latitude": -22.908067, "disabled_spaces": 2, "spaces": 15, "name": "Rua General Belegarde", "longitude": -43.272454},{"latitude": -22.8312547, "disabled_spaces": 4, "spaces": 57, "name": "Avenida Lobo J\u00fanior", "longitude": -43.27835169999999},{"latitude": -22.9324504, "disabled_spaces": 4, "spaces": 46, "name": "Tijuca", "longitude": -43.2413699},{"latitude": -22.9339162, "disabled_spaces": 2, "spaces": 24, "name": "Rua Araguaia", "longitude": -43.3330131},{"latitude": -22.8610075, "disabled_spaces": 2, "spaces": 18, "name": "62", "longitude": -43.2787059},{"latitude": -22.84566779999999, "disabled_spaces": 3, "spaces": 32, "name": "Rua Marco Polo", "longitude": -43.3103582},{"latitude": -22.81887369999999, "disabled_spaces": 5, "spaces": 68, "name": "Rua do Arroz", "longitude": -43.2794618},{"latitude": -22.8954042, "disabled_spaces": 5, "spaces": 71, "name": "Rua Capit\u00e3o Jesus", "longitude": -43.2750984},{"latitude": -22.8651592, "disabled_spaces": 3, "spaces": 39, "name": "Estrada Adhemar Bebiano", "longitude": -43.2990336},{"latitude": -22.9028669, "disabled_spaces": 7, "spaces": 88, "name": "Rua S\u00e3o Francisco Xavier", "longitude": -43.2449024},{"latitude": -22.93137639999999, "disabled_spaces": 6, "spaces": 72, "name": "Avenida Gerem\u00e1rio Dantas 832 Lj B - Pechincha", "longitude": -43.35365960000001},{"latitude": -22.8823413, "disabled_spaces": 1, "spaces": 12, "name": "Rua Paranapiacaba", "longitude": -43.3099302},{"latitude": -22.9759447, "disabled_spaces": 6, "spaces": 75, "name": "Rua Jasmim", "longitude": -43.33634379999999},{"latitude": -22.9241438, "disabled_spaces": 2, "spaces": 21, "name": "Rua Conde de Bonfim", "longitude": -43.2272416},{"latitude": -22.8399292, "disabled_spaces": 6, "spaces": 73, "name": "Rua Patag\u00f4nia", "longitude": -43.27688649999999},{"latitude": -22.930791, "disabled_spaces": 3, "spaces": 30, "name": "Rua Pa\u00e7o do Lumiar", "longitude": -43.3587597},{"latitude": -22.89143099999999, "disabled_spaces": 7, "spaces": 91, "name": "Rua Guilhermina", "longitude": -43.300981},{"latitude": -22.8898128, "disabled_spaces": 3, "spaces": 32, "name": "Rua Angelina", "longitude": -43.30319999999999},{"latitude": -22.9125266, "disabled_spaces": 6, "spaces": 85, "name": "Estrada do Engenho Velho", "longitude": -43.38910009999999},{"latitude": -22.878016, "disabled_spaces": 2, "spaces": 20, "name": "Rua Padre Manuel da N\u00f3brega", "longitude": -43.315821},{"latitude": -22.8546722, "disabled_spaces": 4, "spaces": 50, "name": "Avenida Vicente de Carvalho", "longitude": -43.3235432},{"latitude": -22.8250495, "disabled_spaces": 4, "spaces": 49, "name": "Rua Hor\u00e1cio Wells", "longitude": -43.33245449999999},{"latitude": -22.8349913, "disabled_spaces": 1, "spaces": 2, "name": "Rua Rio Preto", "longitude": -43.30312989999999},{"latitude": -22.8796076, "disabled_spaces": 1, "spaces": 1, "name": "N 44", "longitude": -43.2220293},{"latitude": -22.9163276, "disabled_spaces": 7, "spaces": 89, "name": "Rua Pereira Nunes", "longitude": -43.2406263},{"latitude": -22.8775467, "disabled_spaces": 2, "spaces": 24, "name": "Rua da Felicidade", "longitude": -43.2267986},{"latitude": -22.9257407, "disabled_spaces": 2, "spaces": 27, "name": "Rua Desembargador Izidro", "longitude": -43.2327918},{"latitude": -22.818694, "disabled_spaces": 1, "spaces": 4, "name": "Rua da Farinha", "longitude": -43.278797},{"latitude": -22.8869148, "disabled_spaces": 7, "spaces": 98, "name": "Rua Vi\u00fava Cl\u00e1udio - Jacarezinho", "longitude": -43.2522686},{"latitude": -22.9019397, "disabled_spaces": 5, "spaces": 70, "name": "Rua Manuela Barbosa", "longitude": -43.2811992},{"latitude": -22.9171599, "disabled_spaces": 1, "spaces": 10, "name": "Avenida dos Mananciais", "longitude": -43.38801249999999},{"latitude": -22.8685574, "disabled_spaces": 3, "spaces": 32, "name": "Rua Adela\u00edde Badaj\u00f3s", "longitude": -43.3479202},{"latitude": -22.9247772, "disabled_spaces": 1, "spaces": 10, "name": "Rua Cidade do Rio", "longitude": -43.3798115},{"latitude": -22.8791999, "disabled_spaces": 7, "spaces": 98, "name": "Rua Dois", "longitude": -43.2306888},{"latitude": -22.9131288, "disabled_spaces": 7, "spaces": 96, "name": "Rua do Matoso", "longitude": -43.21301359999999},{"latitude": -22.8342711, "disabled_spaces": 2, "spaces": 25, "name": "Rua Enes Filho", "longitude": -43.2849148}]