{"latitude": -22.906599, "disabled_spaces": 2.0, "spaces": 16, "name": "Avenida Nilo Pe\u00e7anha", "longitude": -43.173998},{"latitude": -22.907713, "disabled_spaces": 2.0, "spaces": 19, "name": "Avenida Almirante Barroso", "longitude": -43.175216},{"latitude": -22.909387, "disabled_spaces": 3.0, "spaces": 30, "name": "Avenida Franklin Roosevelt", "longitude": -43.17112139999999},{"latitude": -22.9071564, "disabled_spaces": 6.0, "spaces": 79, "name": "Rio de Janeiro", "longitude": -43.1742931},{"latitude": -22.9046525, "disabled_spaces": 3.0, "spaces": 36, "name": "Avenida Erasmo Braga", "longitude": -43.173018},{"latitude": -22.9068467, "disabled_spaces": 7.0, "spaces": 90, "name": "Centro", "longitude": -43.17289650000001},{"latitude": -22.904417, "disabled_spaces": 3.0, "spaces": 39, "name": "Rua da Quitanda", "longitude": -43.17607799999999},{"latitude": -22.9094639, "disabled_spaces": 6.0, "spaces": 75, "name": "Avenida Churchill", "longitude": -43.1712852},{"latitude": -22.9081103, "disabled_spaces": 4.0, "spaces": 57, "name": "Rua M\u00e9xico", "longitude": -43.1754448},{"latitude": -22.905569, "disabled_spaces": 5.0, "spaces": 70, "name": "Edif\u00edcio Menezes Cort\u00eas - Avenida Erasmo Braga", "longitude": -43.175002},{"latitude": -22.907159, "disabled_spaces": 7.0, "spaces": 97, "name": "Avenida Almirante Barroso", "longitude": -43.174618},{"latitude": -22.9053626, "disabled_spaces": 4.0, "spaces": 47, "name": "Rua S\u00e3o Jos\u00e9", "longitude": -43.1757339},{"latitude": -22.9040846, "disabled_spaces": 1.0, "spaces": 4, "name": "Travessa do Pa\u00e7o - Centro", "longitude": -43.1736001},{"latitude": -22.9045591, "disabled_spaces": 6.0, "spaces": 78, "name": "Rua S\u00e3o Jos\u00e9", "longitude": -43.17463840000001},{"latitude": -22.9094396, "disabled_spaces": 6.0, "spaces": 81, "name": "Avenida Churchill", "longitude": -43.1712336},{"latitude": -22.9053617, "disabled_spaces": 7.0, "spaces": 99, "name": "Avenida Erasmo Braga", "longitude": -43.1743354},{"latitude": -22.9041296, "disabled_spaces": 6.0, "spaces": 75, "name": "Travessa do Pa\u00e7o", "longitude": -43.1735966},{"latitude": -22.907033, "disabled_spaces": 6.0, "spaces": 76, "name": "Avenida Almirante Barroso", "longitude": -43.1744879},{"latitude": -22.9041778, "disabled_spaces": 4.0, "spaces": 48, "name": "Rua da Assembl\u00e9ia", "longitude": -43.1750227},{"latitude": -22.90875609999999, "disabled_spaces": 3.0, "spaces": 30, "name": "Avenida Marechal C\u00e2mara", "longitude": -43.1693116},{"latitude": -22.906599, "disabled_spaces": 6.0, "spaces": 79, "name": "Avenida Nilo Pe\u00e7anha", "longitude": -43.173998},{"latitude": -22.907713, "disabled_spaces": 3.0, "spaces": 40, "name": "Avenida Almirante Barroso", "longitude": -43.175216},{"latitude": -22.909387, "disabled_spaces": 1.0, "spaces": 13, "name": "Avenida Franklin Roosevelt", "longitude": -43.17112139999999},{"latitude": -22.9071564, "disabled_spaces": 2.0, "spaces": 17, "name": "Rio de Janeiro", "longitude": -43.1742931},{"latitude": -22.9046525, "disabled_spaces": 7.0, "spaces": 95, "name": "Avenida Erasmo Braga", "longitude": -43.173018},{"latitude": -22.9068467, "disabled_spaces": 6.0, "spaces": 74, "name": "Centro", "longitude": -43.17289650000001},{"latitude": -22.904417, "disabled_spaces": 6.0, "spaces": 84, "name": "Rua da Quitanda", "longitude": -43.17607799999999},{"latitude": -22.9094639, "disabled_spaces": 2.0, "spaces": 18, "name": "Avenida Churchill", "longitude": -43.1712852},{"latitude": -22.9081103, "disabled_spaces": 7.0, "spaces": 92, "name": "Rua M\u00e9xico", "longitude": -43.1754448},{"latitude": -22.905569, "disabled_spaces": 4.0, "spaces": 53, "name": "Edif\u00edcio Menezes Cort\u00eas - Avenida Erasmo Braga", "longitude": -43.175002},{"latitude": -22.907159, "disabled_spaces": 1.0, "spaces": 12, "name": "Avenida Almirante Barroso", "longitude": -43.174618},{"latitude": -22.9053626, "disabled_spaces": 6.0, "spaces": 85, "name": "Rua S\u00e3o Jos\u00e9", "longitude": -43.1757339},{"latitude": -22.9040846, "disabled_spaces": 1.0, "spaces": 11, "name": "Travessa do Pa\u00e7o - Centro", "longitude": -43.1736001},{"latitude": -22.9045591, "disabled_spaces": 2.0, "spaces": 27, "name": "Rua S\u00e3o Jos\u00e9", "longitude": -43.17463840000001},{"latitude": -22.9094396, "disabled_spaces": 3.0, "spaces": 32, "name": "Avenida Churchill", "longitude": -43.1712336},{"latitude": -22.9053617, "disabled_spaces": 6.0, "spaces": 76, "name": "Avenida Erasmo Braga", "longitude": -43.1743354},{"latitude": -22.9041296, "disabled_spaces": 7.0, "spaces": 91, "name": "Travessa do Pa\u00e7o", "longitude": -43.1735966},{"latitude": -22.907033, "disabled_spaces": 6.0, "spaces": 84, "name": "Avenida Almirante Barroso", "longitude": -43.1744879},{"latitude": -22.9041778, "disabled_spaces": 7.0, "spaces": 86, "name": "Rua da Assembl\u00e9ia", "longitude": -43.1750227},{"latitude": -22.90875609999999, "disabled_spaces": 4.0, "spaces": 56, "name": "Avenida Marechal C\u00e2mara", "longitude": -43.1693116},{"latitude": -22.906599, "disabled_spaces": 3.0, "spaces": 29, "name": "Avenida Nilo Pe\u00e7anha", "longitude": -43.173998},{"latitude": -22.907713, "disabled_spaces": 6.0, "spaces": 76, "name": "Avenida Almirante Barroso", "longitude": -43.175216},{"latitude": -22.909387, "disabled_spaces": 4.0, "spaces": 44, "name": "Avenida Franklin Roosevelt", "longitude": -43.17112139999999},{"latitude": -22.9071564, "disabled_spaces": 1.0, "spaces": 11, "name": "Rio de Janeiro", "longitude": -43.1742931},{"latitude": -22.9046525, "disabled_spaces": 5.0, "spaces": 59, "name": "Avenida Erasmo Braga", "longitude": -43.173018},{"latitude": -22.9068467, "disabled_spaces": 7.0, "spaces": 88, "name": "Centro", "longitude": -43.17289650000001},{"latitude": -22.904417, "disabled_spaces": 2.0, "spaces": 17, "name": "Rua da Quitanda", "longitude": -43.17607799999999},{"latitude": -22.9094639, "disabled_spaces": 1.0, "spaces": 8, "name": "Avenida Churchill", "longitude": -43.1712852},{"latitude": -22.9081103, "disabled_spaces": 3.0, "spaces": 37, "name": "Rua M\u00e9xico", "longitude": -43.1754448},{"latitude": -22.905569, "disabled_spaces": 1.0, "spaces": 13, "name": "Edif\u00edcio Menezes Cort\u00eas - Avenida Erasmo Braga", "longitude": -43.175002},{"latitude": -22.907159, "disabled_spaces": 5.0, "spaces": 62, "name": "Avenida Almirante Barroso", "longitude": -43.174618},{"latitude": -22.9053626, "disabled_spaces": 5.0, "spaces": 67, "name": "Rua S\u00e3o Jos\u00e9", "longitude": -43.1757339},{"latitude": -22.9040846, "disabled_spaces": 2.0, "spaces": 27, "name": "Travessa do Pa\u00e7o - Centro", "longitude": -43.1736001},{"latitude": -22.9045591, "disabled_spaces": 5.0, "spaces": 60, "name": "Rua S\u00e3o Jos\u00e9", "longitude": -43.17463840000001},{"latitude": -22.9094396, "disabled_spaces": 2.0, "spaces": 27, "name": "Avenida Churchill", "longitude": -43.1712336},{"latitude": -22.9053617, "disabled_spaces": 3.0, "spaces": 38, "name": "Avenida Erasmo Braga", "longitude": -43.1743354},{"latitude": -22.9041296, "disabled_spaces": 7.0, "spaces": 97, "name": "Travessa do Pa\u00e7o", "longitude": -43.1735966},{"latitude": -22.907033, "disabled_spaces": 6.0, "spaces": 74, "name": "Avenida Almirante Barroso", "longitude": -43.1744879},{"latitude": -22.9041778, "disabled_spaces": 7.0, "spaces": 98, "name": "Rua da Assembl\u00e9ia", "longitude": -43.1750227},{"latitude": -22.90875609999999, "disabled_spaces": 5.0, "spaces": 65, "name": "Avenida Marechal C\u00e2mara", "longitude": -43.1693116},{"latitude": -22.906599, "disabled_spaces": 6.0, "spaces": 84, "name": "Avenida Nilo Pe\u00e7anha", "longitude": -43.173998},{"latitude": -22.907713, "disabled_spaces": 3.0, "spaces": 30, "name": "Avenida Almirante Barroso", "longitude": -43.175216},{"latitude": -22.909387, "disabled_spaces": 3.0, "spaces": 36, "name": "Avenida Franklin Roosevelt", "longitude": -43.17112139999999},{"latitude": -22.9071564, "disabled_spaces": 6.0, "spaces": 77, "name": "Rio de Janeiro", "longitude": -43.1742931},{"latitude": -22.9046525, "disabled_spaces": 7.0, "spaces": 92, "name": "Avenida Erasmo Braga", "longitude": -43.173018},{"latitude": -22.9068467, "disabled_spaces": 4.0, "spaces": 44, "name": "Centro", "longitude": -43.17289650000001},{"latitude": -22.904417, "disabled_spaces": 5.0, "spaces": 61, "name": "Rua da Quitanda", "longitude": -43.17607799999999},{"latitude": -22.9094639, "disabled_spaces": 6.0, "spaces": 84, "name": "Avenida Churchill", "longitude": -43.1712852},{"latitude": -22.9081103, "disabled_spaces": 2.0, "spaces": 27, "name": "Rua M\u00e9xico", "longitude": -43.1754448},{"latitude": -22.905569, "disabled_spaces": 3.0, "spaces": 29, "name": "Edif\u00edcio Menezes Cort\u00eas - Avenida Erasmo Braga", "longitude": -43.175002},{"latitude": -22.907159, "disabled_spaces": 6.0, "spaces": 82, "name": "Avenida Almirante Barroso", "longitude": -43.174618},{"latitude": -22.9053626, "disabled_spaces": 4.0, "spaces": 55, "name": "Rua S\u00e3o Jos\u00e9", "longitude": -43.1757339},{"latitude": -22.9040846, "disabled_spaces": 6.0, "spaces": 82, "name": "Travessa do Pa\u00e7o - Centro", "longitude": -43.1736001},{"latitude": -22.9045591, "disabled_spaces": 4.0, "spaces": 55, "name": "Rua S\u00e3o Jos\u00e9", "longitude": -43.17463840000001},{"latitude": -22.9094396, "disabled_spaces": 1.0, "spaces": 11, "name": "Avenida Churchill", "longitude": -43.1712336},{"latitude": -22.9053617, "disabled_spaces": 7.0, "spaces": 92, "name": "Avenida Erasmo Braga", "longitude": -43.1743354},{"latitude": -22.9041296, "disabled_spaces": 1.0, "spaces": 9, "name": "Travessa do Pa\u00e7o", "longitude": -43.1735966},{"latitude": -22.907033, "disabled_spaces": 4.0, "spaces": 54, "name": "Avenida Almirante Barroso", "longitude": -43.1744879},{"latitude": -22.9041778, "disabled_spaces": 3.0, "spaces": 29, "name": "Rua da Assembl\u00e9ia", "longitude": -43.1750227},{"latitude": -22.90875609999999, "disabled_spaces": 6.0, "spaces": 76, "name": "Avenida Marechal C\u00e2mara", "longitude": -43.1693116},{"latitude": -22.906599, "disabled_spaces": 5.0, "spaces": 69, "name": "Avenida Nilo Pe\u00e7anha", "longitude": -43.173998},{"latitude": -22.907713, "disabled_spaces": 6.0, "spaces": 79, "name": "Avenida Almirante Barroso", "longitude": -43.175216},{"latitude": -22.909387, "disabled_spaces": 4.0, "spaces": 45, "name": "Avenida Franklin Roosevelt", "longitude": -43.17112139999999},{"latitude": -22.9071564, "disabled_spaces": 5.0, "spaces": 64, "name": "Rio de Janeiro", "longitude": -43.1742931},{"latitude": -22.9046525, "disabled_spaces": 3.0, "spaces": 39, "name": "Avenida Erasmo Braga", "longitude": -43.173018},{"latitude": -22.9068467, "disabled_spaces": 4.0, "spaces": 44, "name": "Centro", "longitude": -43.17289650000001},{"latitude": -22.904417, "disabled_spaces": 5.0, "spaces": 71, "name": "Rua da Quitanda", "longitude": -43.17607799999999},{"latitude": -22.9094639, "disabled_spaces": 4.0, "spaces": 43, "name": "Avenida Churchill", "longitude": -43.1712852},{"latitude": -22.9081103, "disabled_spaces": 3.0, "spaces": 37, "name": "Rua M\u00e9xico", "longitude": -43.1754448},{"latitude": -22.905569, "disabled_spaces": 4.0, "spaces": 46, "name": "Edif\u00edcio Menezes Cort\u00eas - Avenida Erasmo Braga", "longitude": -43.175002},{"latitude": -22.907159, "disabled_spaces": 1.0, "spaces": 10, "name": "Avenida Almirante Barroso", "longitude": -43.174618},{"latitude": -22.9053626, "disabled_spaces": 6.0, "spaces": 84, "name": "Rua S\u00e3o Jos\u00e9", "longitude": -43.1757339},{"latitude": -22.9040846, "disabled_spaces": 5.0, "spaces": 63, "name": "Travessa do Pa\u00e7o - Centro", "longitude": -43.1736001},{"latitude": -22.9045591, "disabled_spaces": 4.0, "spaces": 49, "name": "Rua S\u00e3o Jos\u00e9", "longitude": -43.17463840000001},{"latitude": -22.9094396, "disabled_spaces": 3.0, "spaces": 37, "name": "Avenida Churchill", "longitude": -43.1712336},{"latitude": -22.9053617, "disabled_spaces": 2.0, "spaces": 22, "name": "Avenida Erasmo Braga", "longitude": -43.1743354},{"latitude": -22.9041296, "disabled_spaces": 1.0, "spaces": 8, "name": "Travessa do Pa\u00e7o", "longitude": -43.1735966},{"latitude": -22.907033, "disabled_spaces": 6.0, "spaces": 74, "name": "Avenida Almirante Barroso", "longitude": -43.1744879},{"latitude": -22.9041778, "disabled_spaces": 4.0, "spaces": 53, "name": "Rua da Assembl\u00e9ia", "longitude": -43.1750227},{"latitude": -22.90875609999999, "disabled_spaces": 2.0, "spaces": 21, "name": "Avenida Marechal C\u00e2mara", "longitude": -43.1693116},{"latitude": -22.906599, "disabled_spaces": 3.0, "spaces": 37, "name": "Avenida Nilo Pe\u00e7anha", "longitude": -43.173998},{"latitude": -22.907713, "disabled_spaces": 2.0, "spaces": 26, "name": "Avenida Almirante Barroso", "longitude": -43.175216},{"latitude": -22.909387, "disabled_spaces": 6.0, "spaces": 79, "name": "Avenida Franklin Roosevelt", "longitude": -43.17112139999999},{"latitude": -22.9071564, "disabled_spaces": 5.0, "spaces": 68, "name": "Rio de Janeiro", "longitude": -43.1742931},{"latitude": -22.9046525, "disabled_spaces": 5.0, "spaces": 67, "name": "Avenida Erasmo Braga", "longitude": -43.173018},{"latitude": -22.9068467, "disabled_spaces": 6.0, "spaces": 79, "name": "Centro", "longitude": -43.17289650000001},{"latitude": -22.904417, "disabled_spaces": 3.0, "spaces": 39, "name": "Rua da Quitanda", "longitude": -43.17607799999999},{"latitude": -22.9094639, "disabled_spaces": 4.0, "spaces": 53, "name": "Avenida Churchill", "longitude": -43.1712852},{"latitude": -22.9081103, "disabled_spaces": 7.0, "spaces": 94, "name": "Rua M\u00e9xico", "longitude": -43.1754448},{"latitude": -22.905569, "disabled_spaces": 4.0, "spaces": 56, "name": "Edif\u00edcio Menezes Cort\u00eas - Avenida Erasmo Braga", "longitude": -43.175002},{"latitude": -22.907159, "disabled_spaces": 4.0, "spaces": 44, "name": "Avenida Almirante Barroso", "longitude": -43.174618},{"latitude": -22.9053626, "disabled_spaces": 3.0, "spaces": 38, "name": "Rua S\u00e3o Jos\u00e9", "longitude": -43.1757339},{"latitude": -22.9040846, "disabled_spaces": 1.0, "spaces": 2, "name": "Travessa do Pa\u00e7o - Centro", "longitude": -43.1736001},{"latitude": -22.9045591, "disabled_spaces": 3.0, "spaces": 39, "name": "Rua S\u00e3o Jos\u00e9", "longitude": -43.17463840000001},{"latitude": -22.9094396, "disabled_spaces": 7.0, "spaces": 94, "name": "Avenida Churchill", "longitude": -43.1712336},{"latitude": -22.9053617, "disabled_spaces": 5.0, "spaces": 58, "name": "Avenida Erasmo Braga", "longitude": -43.1743354},{"latitude": -22.9041296, "disabled_spaces": 3.0, "spaces": 30, "name": "Travessa do Pa\u00e7o", "longitude": -43.1735966},{"latitude": -22.907033, "disabled_spaces": 3.0, "spaces": 31, "name": "Avenida Almirante Barroso", "longitude": -43.1744879},{"latitude": -22.9041778, "disabled_spaces": 7.0, "spaces": 98, "name": "Rua da Assembl\u00e9ia", "longitude": -43.1750227},{"latitude": -22.90875609999999, "disabled_spaces": 2.0, "spaces": 22, "name": "Avenida Marechal C\u00e2mara", "longitude": -43.1693116},{"latitude": -22.906599, "disabled_spaces": 3.0, "spaces": 40, "name": "Avenida Nilo Pe\u00e7anha", "longitude": -43.173998},{"latitude": -22.907713, "disabled_spaces": 2.0, "spaces": 25, "name": "Avenida Almirante Barroso", "longitude": -43.175216},{"latitude": -22.909387, "disabled_spaces": 7.0, "spaces": 87, "name": "Avenida Franklin Roosevelt", "longitude": -43.17112139999999},{"latitude": -22.9071564, "disabled_spaces": 3.0, "spaces": 42, "name": "Rio de Janeiro", "longitude": -43.1742931},{"latitude": -22.9046525, "disabled_spaces": 4.0, "spaces": 53, "name": "Avenida Erasmo Braga", "longitude": -43.173018},{"latitude": -22.9068467, "disabled_spaces": 3.0, "spaces": 34, "name": "Centro", "longitude": -43.17289650000001},{"latitude": -22.904417, "disabled_spaces": 4.0, "spaces": 54, "name": "Rua da Quitanda", "longitude": -43.17607799999999},{"latitude": -22.9094639, "disabled_spaces": 2.0, "spaces": 15, "name": "Avenida Churchill", "longitude": -43.1712852},{"latitude": -22.9081103, "disabled_spaces": 7.0, "spaces": 97, "name": "Rua M\u00e9xico", "longitude": -43.1754448},{"latitude": -22.905569, "disabled_spaces": 5.0, "spaces": 61, "name": "Edif\u00edcio Menezes Cort\u00eas - Avenida Erasmo Braga", "longitude": -43.175002},{"latitude": -22.907159, "disabled_spaces": 4.0, "spaces": 53, "name": "Avenida Almirante Barroso", "longitude": -43.174618},{"latitude": -22.9053626, "disabled_spaces": 2.0, "spaces": 19, "name": "Rua S\u00e3o Jos\u00e9", "longitude": -43.1757339},{"latitude": -22.9040846, "disabled_spaces": 6.0, "spaces": 72, "name": "Travessa do Pa\u00e7o - Centro", "longitude": -43.1736001},{"latitude": -22.9045591, "disabled_spaces": 2.0, "spaces": 24, "name": "Rua S\u00e3o Jos\u00e9", "longitude": -43.17463840000001},{"latitude": -22.9094396, "disabled_spaces": 6.0, "spaces": 78, "name": "Avenida Churchill", "longitude": -43.1712336},{"latitude": -22.9053617, "disabled_spaces": 2.0, "spaces": 15, "name": "Avenida Erasmo Braga", "longitude": -43.1743354},{"latitude": -22.9041296, "disabled_spaces": 3.0, "spaces": 41, "name": "Travessa do Pa\u00e7o", "longitude": -43.1735966},{"latitude": -22.907033, "disabled_spaces": 7.0, "spaces": 94, "name": "Avenida Almirante Barroso", "longitude": -43.1744879},{"latitude": -22.9041778, "disabled_spaces": 2.0, "spaces": 15, "name": "Rua da Assembl\u00e9ia", "longitude": -43.1750227},{"latitude": -22.90875609999999, "disabled_spaces": 6.0, "spaces": 76, "name": "Avenida Marechal C\u00e2mara", "longitude": -43.1693116},{"latitude": -22.906599, "disabled_spaces": 3.0, "spaces": 29, "name": "Avenida Nilo Pe\u00e7anha", "longitude": -43.173998},{"latitude": -22.907713, "disabled_spaces": 3.0, "spaces": 35, "name": "Avenida Almirante Barroso", "longitude": -43.175216},{"latitude": -22.909387, "disabled_spaces": 3.0, "spaces": 33, "name": "Avenida Franklin Roosevelt", "longitude": -43.17112139999999},{"latitude": -22.9071564, "disabled_spaces": 4.0, "spaces": 44, "name": "Rio de Janeiro", "longitude": -43.1742931},{"latitude": -22.9046525, "disabled_spaces": 6.0, "spaces": 78, "name": "Avenida Erasmo Braga", "longitude": -43.173018},{"latitude": -22.9068467, "disabled_spaces": 1.0, "spaces": 13, "name": "Centro", "longitude": -43.17289650000001},{"latitude": -22.904417, "disabled_spaces": 5.0, "spaces": 70, "name": "Rua da Quitanda", "longitude": -43.17607799999999},{"latitude": -22.9094639, "disabled_spaces": 4.0, "spaces": 52, "name": "Avenida Churchill", "longitude": -43.1712852},{"latitude": -22.9081103, "disabled_spaces": 4.0, "spaces": 57, "name": "Rua M\u00e9xico", "longitude": -43.1754448},{"latitude": -22.905569, "disabled_spaces": 6.0, "spaces": 78, "name": "Edif\u00edcio Menezes Cort\u00eas - Avenida Erasmo Braga", "longitude": -43.175002},{"latitude": -22.907159, "disabled_spaces": 7.0, "spaces": 86, "name": "Avenida Almirante Barroso", "longitude": -43.174618},{"latitude": -22.9053626, "disabled_spaces": 1.0, "spaces": 5, "name": "Rua S\u00e3o Jos\u00e9", "longitude": -43.1757339},{"latitude": -22.9040846, "disabled_spaces": 4.0, "spaces": 48, "name": "Travessa do Pa\u00e7o - Centro", "longitude": -43.1736001},{"latitude": -22.9045591, "disabled_spaces": 5.0, "spaces": 58, "name": "Rua S\u00e3o Jos\u00e9", "longitude": -43.17463840000001},{"latitude": -22.9094396, "disabled_spaces": 3.0, "spaces": 29, "name": "Avenida Churchill", "longitude": -43.1712336},{"latitude": -22.9053617, "disabled_spaces": 4.0, "spaces": 44, "name": "Avenida Erasmo Braga", "longitude": -43.1743354},{"latitude": -22.9041296, "disabled_spaces": 3.0, "spaces": 33, "name": "Travessa do Pa\u00e7o", "longitude": -43.1735966},{"latitude": -22.907033, "disabled_spaces": 4.0, "spaces": 54, "name": "Avenida Almirante Barroso", "longitude": -43.1744879},{"latitude": -22.9041778, "disabled_spaces": 6.0, "spaces": 75, "name": "Rua da Assembl\u00e9ia", "longitude": -43.1750227},{"latitude": -22.90875609999999, "disabled_spaces": 3.0, "spaces": 29, "name": "Avenida Marechal C\u00e2mara", "longitude": -43.1693116},{"latitude": -22.906599, "disabled_spaces": 6.0, "spaces": 77, "name": "Avenida Nilo Pe\u00e7anha", "longitude": -43.173998},{"latitude": -22.907713, "disabled_spaces": 2.0, "spaces": 15, "name": "Avenida Almirante Barroso", "longitude": -43.175216},{"latitude": -22.909387, "disabled_spaces": 4.0, "spaces": 57, "name": "Avenida Franklin Roosevelt", "longitude": -43.17112139999999},{"latitude": -22.9071564, "disabled_spaces": 1.0, "spaces": 11, "name": "Rio de Janeiro", "longitude": -43.1742931},{"latitude": -22.9046525, "disabled_spaces": 2.0, "spaces": 28, "name": "Avenida Erasmo Braga", "longitude": -43.173018},{"latitude": -22.9068467, "disabled_spaces": 3.0, "spaces": 29, "name": "Centro", "longitude": -43.17289650000001},{"latitude": -22.904417, "disabled_spaces": 7.0, "spaces": 93, "name": "Rua da Quitanda", "longitude": -43.17607799999999},{"latitude": -22.9094639, "disabled_spaces": 2.0, "spaces": 20, "name": "Avenida Churchill", "longitude": -43.1712852},{"latitude": -22.9081103, "disabled_spaces": 2.0, "spaces": 21, "name": "Rua M\u00e9xico", "longitude": -43.1754448},{"latitude": -22.905569, "disabled_spaces": 7.0, "spaces": 90, "name": "Edif\u00edcio Menezes Cort\u00eas - Avenida Erasmo Braga", "longitude": -43.175002},{"latitude": -22.907159, "disabled_spaces": 6.0, "spaces": 72, "name": "Avenida Almirante Barroso", "longitude": -43.174618},{"latitude": -22.9053626, "disabled_spaces": 7.0, "spaces": 98, "name": "Rua S\u00e3o Jos\u00e9", "longitude": -43.1757339},{"latitude": -22.9040846, "disabled_spaces": 2.0, "spaces": 25, "name": "Travessa do Pa\u00e7o - Centro", "longitude": -43.1736001},{"latitude": -22.9045591, "disabled_spaces": 4.0, "spaces": 45, "name": "Rua S\u00e3o Jos\u00e9", "longitude": -43.17463840000001},{"latitude": -22.9094396, "disabled_spaces": 4.0, "spaces": 53, "name": "Avenida Churchill", "longitude": -43.1712336},{"latitude": -22.9053617, "disabled_spaces": 7.0, "spaces": 96, "name": "Avenida Erasmo Braga", "longitude": -43.1743354},{"latitude": -22.9041296, "disabled_spaces": 6.0, "spaces": 74, "name": "Travessa do Pa\u00e7o", "longitude": -43.1735966},{"latitude": -22.907033, "disabled_spaces": 4.0, "spaces": 52, "name": "Avenida Almirante Barroso", "longitude": -43.1744879},{"latitude": -22.9041778, "disabled_spaces": 5.0, "spaces": 60, "name": "Rua da Assembl\u00e9ia", "longitude": -43.1750227},{"latitude": -22.90875609999999, "disabled_spaces": 7.0, "spaces": 87, "name": "Avenida Marechal C\u00e2mara", "longitude": -43.1693116},{"latitude": -22.906599, "disabled_spaces": 4.0, "spaces": 56, "name": "Avenida Nilo Pe\u00e7anha", "longitude": -43.173998},{"latitude": -22.907713, "disabled_spaces": 6.0, "spaces": 85, "name": "Avenida Almirante Barroso", "longitude": -43.175216},{"latitude": -22.909387, "disabled_spaces": 4.0, "spaces": 46, "name": "Avenida Franklin Roosevelt", "longitude": -43.17112139999999},{"latitude": -22.9071564, "disabled_spaces": 7.0, "spaces": 93, "name": "Rio de Janeiro", "longitude": -43.1742931},{"latitude": -22.9046525, "disabled_spaces": 1.0, "spaces": 3, "name": "Avenida Erasmo Braga", "longitude": -43.173018},{"latitude": -22.9068467, "disabled_spaces": 7.0, "spaces": 92, "name": "Centro", "longitude": -43.17289650000001},{"latitude": -22.904417, "disabled_spaces": 7.0, "spaces": 89, "name": "Rua da Quitanda", "longitude": -43.17607799999999},{"latitude": -22.9094639, "disabled_spaces": 2.0, "spaces": 20, "name": "Avenida Churchill", "longitude": -43.1712852},{"latitude": -22.9081103, "disabled_spaces": 5.0, "spaces": 58, "name": "Rua M\u00e9xico", "longitude": -43.1754448},{"latitude": -22.905569, "disabled_spaces": 5.0, "spaces": 71, "name": "Edif\u00edcio Menezes Cort\u00eas - Avenida Erasmo Braga", "longitude": -43.175002},{"latitude": -22.907159, "disabled_spaces": 7.0, "spaces": 91, "name": "Avenida Almirante Barroso", "longitude": -43.174618},{"latitude": -22.9053626, "disabled_spaces": 5.0, "spaces": 65, "name": "Rua S\u00e3o Jos\u00e9", "longitude": -43.1757339},{"latitude": -22.9040846, "disabled_spaces": 7.0, "spaces": 86, "name": "Travessa do Pa\u00e7o - Centro", "longitude": -43.1736001},{"latitude": -22.9045591, "disabled_spaces": 4.0, "spaces": 53, "name": "Rua S\u00e3o Jos\u00e9", "longitude": -43.17463840000001},{"latitude": -22.9094396, "disabled_spaces": 6.0, "spaces": 82, "name": "Avenida Churchill", "longitude": -43.1712336},{"latitude": -22.9053617, "disabled_spaces": 5.0, "spaces": 60, "name": "Avenida Erasmo Braga", "longitude": -43.1743354},{"latitude": -22.9041296, "disabled_spaces": 7.0, "spaces": 92, "name": "Travessa do Pa\u00e7o", "longitude": -43.1735966},{"latitude": -22.907033, "disabled_spaces": 2.0, "spaces": 23, "name": "Avenida Almirante Barroso", "longitude": -43.1744879},{"latitude": -22.9041778, "disabled_spaces": 2.0, "spaces": 15, "name": "Rua da Assembl\u00e9ia", "longitude": -43.1750227},{"latitude": -22.90875609999999, "disabled_spaces": 6.0, "spaces": 73, "name": "Avenida Marechal C\u00e2mara", "longitude": -43.1693116},{"latitude": -22.906599, "disabled_spaces": 4.0, "spaces": 49, "name": "Avenida Nilo Pe\u00e7anha", "longitude": -43.173998},{"latitude": -22.907713, "disabled_spaces": 3.0, "spaces": 42, "name": "Avenida Almirante Barroso", "longitude": -43.175216},{"latitude": -22.909387, "disabled_spaces": 4.0, "spaces": 47, "name": "Avenida Franklin Roosevelt", "longitude": -43.17112139999999},{"latitude": -22.9071564, "disabled_spaces": 1.0, "spaces": 7, "name": "Rio de Janeiro", "longitude": -43.1742931},{"latitude": -22.9046525, "disabled_spaces": 1.0, "spaces": 8, "name": "Avenida Erasmo Braga", "longitude": -43.173018},{"latitude": -22.9068467, "disabled_spaces": 4.0, "spaces": 48, "name": "Centro", "longitude": -43.17289650000001},{"latitude": -22.904417, "disabled_spaces": 4.0, "spaces": 46, "name": "Rua da Quitanda", "longitude": -43.17607799999999},{"latitude": -22.9094639, "disabled_spaces": 4.0, "spaces": 46, "name": "Avenida Churchill", "longitude": -43.1712852},{"latitude": -22.9081103, "disabled_spaces": 2.0, "spaces": 21, "name": "Rua M\u00e9xico", "longitude": -43.1754448},{"latitude": -22.905569, "disabled_spaces": 7.0, "spaces": 86, "name": "Edif\u00edcio Menezes Cort\u00eas - Avenida Erasmo Braga", "longitude": -43.175002},{"latitude": -22.907159, "disabled_spaces": 5.0, "spaces": 68, "name": "Avenida Almirante Barroso", "longitude": -43.174618},{"latitude": -22.9053626, "disabled_spaces": 6.0, "spaces": 75, "name": "Rua S\u00e3o Jos\u00e9", "longitude": -43.1757339},{"latitude": -22.9040846, "disabled_spaces": 7.0, "spaces": 93, "name": "Travessa do Pa\u00e7o - Centro", "longitude": -43.1736001},{"latitude": -22.9045591, "disabled_spaces": 1.0, "spaces": 11, "name": "Rua S\u00e3o Jos\u00e9", "longitude": -43.17463840000001},{"latitude": -22.9094396, "disabled_spaces": 7.0, "spaces": 96, "name": "Avenida Churchill", "longitude": -43.1712336},{"latitude": -22.9053617, "disabled_spaces": 1.0, "spaces": 13, "name": "Avenida Erasmo Braga", "longitude": -43.1743354},{"latitude": -22.9041296, "disabled_spaces": 4.0, "spaces": 55, "name": "Travessa do Pa\u00e7o", "longitude": -43.1735966},{"latitude": -22.907033, "disabled_spaces": 1.0, "spaces": 6, "name": "Avenida Almirante Barroso", "longitude": -43.1744879},{"latitude": -22.9041778, "disabled_spaces": 1.0, "spaces": 2, "name": "Rua da Assembl\u00e9ia", "longitude": -43.1750227},{"latitude": -22.90875609999999, "disabled_spaces": 5.0, "spaces": 62, "name": "Avenida Marechal C\u00e2mara", "longitude": -43.1693116}]