[{"latitude": -22.9512827, "disabled_spaces": 4, "spaces": 50, "name": "Rua da Passagem", "longitude": -43.1817177},{"latitude": -22.904169, "disabled_spaces": 1, "spaces": 6, "name": "Condom\u00ednio do Edif\u00edcio Portobelo - Rua Cinco de Julho", "longitude": -43.103811},{"latitude": -22.995788, "disabled_spaces": 3, "spaces": 34, "name": "Rua Armando Almeida Lima", "longitude": -43.24213299999999},{"latitude": -22.9145809, "disabled_spaces": 3, "spaces": 31, "name": "Rua General Canabarro", "longitude": -43.2259902},{"latitude": -22.95071609999999, "disabled_spaces": 4, "spaces": 54, "name": "Rua Volunt\u00e1rios da P\u00e1tria", "longitude": -43.1817946},{"latitude": -22.9045829, "disabled_spaces": 7, "spaces": 94, "name": "Avenida Pedro II", "longitude": -43.2186716},{"latitude": -22.9144635, "disabled_spaces": 1, "spaces": 9, "name": "Rua Silvio Romero", "longitude": -43.18197939999999},{"latitude": -22.9212295, "disabled_spaces": 1, "spaces": 5, "name": "Rua Almirante Alexandrino", "longitude": -43.1847809},{"latitude": -22.9329111, "disabled_spaces": 3, "spaces": 42, "name": "Rua Conde de Bonfim", "longitude": -43.2415854},{"latitude": -22.9247857, "disabled_spaces": 1, "spaces": 1, "name": "Rua Uberaba", "longitude": -43.2570295},{"latitude": -22.9181645, "disabled_spaces": 6, "spaces": 85, "name": "Rua dos Artistas", "longitude": -43.2381503},{"latitude": -22.9677571, "disabled_spaces": 4, "spaces": 57, "name": "Rua Barata Ribeiro", "longitude": -43.1846389},{"latitude": -22.9551579, "disabled_spaces": 7, "spaces": 98, "name": "Rua Volunt\u00e1rios da P\u00e1tria", "longitude": -43.1969332},{"latitude": -22.9197758, "disabled_spaces": 2, "spaces": 18, "name": "Rua C\u00e2ndido Mendes", "longitude": -43.1789741},{"latitude": -22.8968721, "disabled_spaces": 2, "spaces": 20, "name": "Rua Justino de Sousa", "longitude": -43.22968270000001},{"latitude": -22.9167864, "disabled_spaces": 1, "spaces": 1, "name": "Rua Taylor", "longitude": -43.1789035},{"latitude": -22.960426, "disabled_spaces": 3, "spaces": 38, "name": "Rua Doutor Jo\u00e3o Guerra - Leme", "longitude": -43.16898099999999},{"latitude": -22.8854896, "disabled_spaces": 2, "spaces": 22, "name": "Mercado S\u00e3o Pedro - Box - 209", "longitude": -43.12517539999999},{"latitude": -22.922018, "disabled_spaces": 4, "spaces": 57, "name": "Rua Almirante Alexandrino", "longitude": -43.1877732},{"latitude": -22.9324504, "disabled_spaces": 5, "spaces": 65, "name": "Tijuca", "longitude": -43.2413699},{"latitude": -22.9067171, "disabled_spaces": 1, "spaces": 4, "name": "Avenida Almirante Ary Parreiras", "longitude": -43.0991194},{"latitude": -22.9043441, "disabled_spaces": 7, "spaces": 94, "name": "Rua Gavi\u00e3o Peixoto", "longitude": -43.1098228},{"latitude": -22.9130266, "disabled_spaces": 7, "spaces": 88, "name": "Rua Riachuelo", "longitude": -43.19127719999999},{"latitude": -22.9804756, "disabled_spaces": 6, "spaces": 73, "name": "Avenida Epit\u00e1cio Pessoa", "longitude": -43.2050781},{"latitude": -22.8837908, "disabled_spaces": 3, "spaces": 36, "name": "Travessa Santo Ant\u00f4nio", "longitude": -43.1118454},{"latitude": -22.8939615, "disabled_spaces": 4, "spaces": 53, "name": "Rua da Concei\u00e7\u00e3o", "longitude": -43.1226677},{"latitude": -22.9637387, "disabled_spaces": 2, "spaces": 19, "name": "Rua Fonte da Saudade - Lagoa", "longitude": -43.2028945},{"latitude": -22.8796076, "disabled_spaces": 1, "spaces": 7, "name": "N 44", "longitude": -43.2220293},{"latitude": -22.9160512, "disabled_spaces": 5, "spaces": 58, "name": "Avenida Nossa Senhora de F\u00e1tima", "longitude": -43.18838639999999},{"latitude": -22.914316, "disabled_spaces": 4, "spaces": 55, "name": "Rua Tadeu kosciusco N\u00b058 - Centro", "longitude": -43.188406},{"latitude": -22.911431, "disabled_spaces": 3, "spaces": 31, "name": "Rua dos Inv\u00e1lidos", "longitude": -43.18500829999999},{"latitude": -22.8791999, "disabled_spaces": 1, "spaces": 10, "name": "Rua Dois", "longitude": -43.2306888},{"latitude": -22.9131288, "disabled_spaces": 6, "spaces": 80, "name": "Rua do Matoso", "longitude": -43.21301359999999},{"latitude": -22.9190952, "disabled_spaces": 3, "spaces": 37, "name": "Beco da Capela", "longitude": -43.20179879999999},{"latitude": -22.9110911, "disabled_spaces": 5, "spaces": 62, "name": "Pra\u00e7a da Bandeira", "longitude": -43.2151728},{"latitude": -22.9157004, "disabled_spaces": 5, "spaces": 70, "name": "Rua Haddock Lobo", "longitude": -43.2080432},{"latitude": -22.9803886, "disabled_spaces": 1, "spaces": 1, "name": "Rua Nova Bras\u00edlia 5 - Copacabana", "longitude": -43.19786250000001},{"latitude": -22.8956367, "disabled_spaces": 4, "spaces": 57, "name": "Rua Monsenhor Manuel Gomes", "longitude": -43.2177207},{"latitude": -22.8921845, "disabled_spaces": 1, "spaces": 13, "name": "Rua Bela", "longitude": -43.2217248},{"latitude": -22.99577799999999, "disabled_spaces": 3, "spaces": 38, "name": "Rua Armando Almeida Lima", "longitude": -43.24245699999999},{"latitude": -22.9136567, "disabled_spaces": 2, "spaces": 23, "name": "Avenida Gomes Freire", "longitude": -43.1825586},{"latitude": -22.9159915, "disabled_spaces": 7, "spaces": 95, "name": "Travessa S\u00e3o Carlos", "longitude": -43.20340889999999},{"latitude": -22.9100464, "disabled_spaces": 1, "spaces": 9, "name": "Rua Artur Orlando", "longitude": -43.18298619999999},{"latitude": -22.9157527, "disabled_spaces": 5, "spaces": 62, "name": "Rua Sampaio Ferraz", "longitude": -43.20677449999999},{"latitude": -22.8864927, "disabled_spaces": 5, "spaces": 71, "name": "Rua Bela", "longitude": -43.22655779999999},{"latitude": -22.9259392, "disabled_spaces": 1, "spaces": 13, "name": "Rua Bar\u00e3o de Mesquita", "longitude": -43.2484137},{"latitude": -22.9079597, "disabled_spaces": 5, "spaces": 68, "name": "Rua Sotero dos R\u00e9is - Praca da Bandeira", "longitude": -43.2144125},{"latitude": -22.9129264, "disabled_spaces": 6, "spaces": 80, "name": "Rua do Lavradio", "longitude": -43.1817527},{"latitude": -22.923857, "disabled_spaces": 3, "spaces": 30, "name": "Rua Bar\u00e3o de Mesquita", "longitude": -43.255024},{"latitude": -22.902718, "disabled_spaces": 5, "spaces": 70, "name": "Rua S\u00e3o Crist\u00f3v\u00e3o", "longitude": -43.21789099999999},{"latitude": -22.9061907, "disabled_spaces": 7, "spaces": 99, "name": "Rua Antunes Maciel", "longitude": -43.21691},{"latitude": -22.9354808, "disabled_spaces": 4, "spaces": 47, "name": "Avenida Carlos Ermelindo Marins", "longitude": -43.1032305},{"latitude": -22.8999616, "disabled_spaces": 3, "spaces": 36, "name": "Travessa S\u00e3o Lu\u00eds Gonzaga", "longitude": -43.22957269999999},{"latitude": -22.909606, "disabled_spaces": 2, "spaces": 16, "name": "Rua Cear\u00e1", "longitude": -43.2160249},{"latitude": -22.8888233, "disabled_spaces": 4, "spaces": 51, "name": "Rua Ricardo Machado", "longitude": -43.2322509},{"latitude": -22.9175546, "disabled_spaces": 3, "spaces": 37, "name": "Rua S\u00e3o Francisco Xavier", "longitude": -43.2249767},{"latitude": -22.89121249999999, "disabled_spaces": 1, "spaces": 12, "name": "Rua Conde de Leopoldina", "longitude": -43.22005689999999},{"latitude": -22.8832208, "disabled_spaces": 3, "spaces": 31, "name": "Rua da Alegria", "longitude": -43.2283523},{"latitude": -22.9334436, "disabled_spaces": 4, "spaces": 51, "name": "Rua das Laranjeiras", "longitude": -43.184765},{"latitude": -22.8856734, "disabled_spaces": 3, "spaces": 32, "name": "Rua Da Participa\u00e7\u00e3o N\u00b09 - Manguinhos", "longitude": -43.2327193}]
